City_ID,City,Lat,Lng,Max Temp,Humidity,Cloudiness,Wind Speed,Country,Date
0,ambovombe,-25.1667,46.0833,72.43,94,61,3.65,MG,1730072917
1,saint-philippe,-21.3585,55.7679,75.34,87,85,4.5,RE,1730072919
2,hithadhoo,-0.6,73.0833,81.27,78,72,11.16,MV,1730072920
3,wenling,28.3669,121.36,61.56,89,100,8.39,CN,1730072921
4,washim,20.1,77.15,67.24,66,89,2.75,IN,1730072922
5,bardai,11.65,7.2333,69.96,31,7,8.21,NG,1730072923
6,olonkinbyen,70.9221,-8.7187,22.6,81,100,47.56,SJ,1730072924
7,rongelap,11.1635,166.8941,83.43,78,77,8.16,MH,1730072926
8,brooks,50.5834,-111.8851,60.78,36,33,17.27,CA,1730072683
9,bredasdorp,-34.5322,20.0403,59.79,90,100,23.13,ZA,1730072928
10,grytviken,-54.2811,-36.5092,28.45,82,60,2.08,GS,1730072929
11,iqaluit,63.7506,-68.5145,20.93,85,75,10.36,CA,1730072686
12,villa regina,-39.1,-67.0667,78.96,8,4,10.38,AR,1730072931
13,tura,25.5198,90.2201,69.64,86,0,3.87,IN,1730072933
14,yellowknife,62.456,-114.3525,31.41,99,100,10.36,CA,1730072934
15,pacific grove,36.6177,-121.9166,66.65,91,40,9.22,US,1730072492
16,prince george,53.9166,-122.753,47.64,88,100,3.44,CA,1730072936
17,hammerfest,70.6634,23.6821,41.45,93,100,3.44,NO,1730072937
18,qaqortoq,60.7167,-46.0333,32.56,99,100,3.74,GL,1730072939
19,bethel,41.3712,-73.414,46.62,46,0,3.44,US,1730072931
20,waitangi,-43.9535,-176.5597,54.82,98,94,8.99,NZ,1730072941
21,adamstown,-25.066,-130.1015,71.47,80,7,10.16,PN,1730072943
22,jamestown,42.097,-79.2353,46.04,57,100,5.75,US,1730072944
23,georgetown,5.4112,100.3354,78.73,93,20,3.44,MY,1730072395
24,isafjordur,66.0755,-23.124,25.39,64,33,8.21,IS,1730072947
25,punta arenas,-53.15,-70.9167,44.71,76,75,31.07,CL,1730072948
26,porto novo,6.4965,2.6036,78.13,90,26,4.21,BJ,1730072949
27,ancud,-41.8697,-73.8203,48.78,82,11,3.71,CL,1730072950
28,edinburgh of the seven seas,-37.0676,-12.3116,60.67,92,100,32.59,SH,1730072952
29,sisimiut,66.9395,-53.6735,17.55,60,100,6.78,GL,1730072953
30,port-aux-francais,-49.35,70.2167,36.41,72,100,29.66,TF,1730072954
31,bouna,9.2667,-3.0,77.81,72,59,2.04,CI,1730072955
32,shimanovsk,52.0,127.7,29.34,80,40,5.06,RU,1730072956
33,sur,22.5667,59.5289,83.16,43,1,4.14,OM,1730072958
34,mchinji,-13.7984,32.8802,75.13,46,63,7.96,MW,1730072959
35,puerto ayora,-0.7393,-90.3518,67.55,98,85,5.99,EC,1730072960
36,udomlya,57.8794,34.9925,38.59,97,34,4.72,RU,1730072962
37,luba,3.4568,8.5547,79.39,87,79,3.94,GQ,1730072963
38,belmonte,-15.8631,-38.8828,76.71,79,83,7.67,BR,1730072965
39,infantes,38.7367,-3.0122,43.38,84,84,11.36,ES,1730072966
40,laguna,38.421,-121.4238,76.1,56,20,12.66,US,1730072967
41,yakeshi,49.2833,120.7333,29.43,87,35,3.38,CN,1730072969
42,manokwari,-0.8667,134.0833,81.79,78,100,8.23,ID,1730072970
43,port elizabeth,-33.918,25.5701,64.31,60,0,16.11,ZA,1730072678
44,ust-nera,64.5667,143.2,-3.08,98,91,4.09,RU,1730072972
45,lawton,34.6087,-98.3903,84.11,42,0,10.36,US,1730072914
46,lata,40.1629,-8.3327,46.44,88,26,4.68,PT,1730072975
47,lihue,21.9789,-159.3672,83.79,71,40,17.27,US,1730072976
48,bilibino,68.0546,166.4372,14.5,89,100,3.76,RU,1730072977
49,waddan,29.1614,16.139,68.27,38,41,10.63,LY,1730072978
50,badger,64.8,-147.5333,13.35,83,75,5.75,US,1730072979
51,hadibu,12.65,54.0333,79.32,78,61,5.75,YE,1730072981
52,longyearbyen,78.2186,15.6401,31.84,100,40,2.3,SJ,1730072982
53,al kharijah,25.4514,30.5464,65.03,40,0,6.35,EG,1730072983
54,garbahaarrey,3.3289,42.2209,79.63,70,94,12.46,SO,1730072984
55,nova sintra,14.8667,-24.7167,78.55,77,98,20.92,CV,1730072986
56,touros,-5.1989,-35.4608,78.66,77,37,12.71,BR,1730072907
57,gaiman,-43.2897,-65.4929,61.0,31,0,11.03,AR,1730072988
58,pontes e lacerda,-15.2261,-59.3353,74.26,96,98,2.42,BR,1730072989
59,anadyr,64.75,177.4833,28.9,74,75,26.84,RU,1730072990
60,papatowai,-46.5619,169.4708,48.74,78,95,10.29,NZ,1730072991
61,puerto natales,-51.7236,-72.4875,45.37,90,100,19.48,CL,1730072701
62,saipan,15.1355,145.701,81.3,94,75,9.22,MP,1730072994
63,bikenibeu village,1.3673,173.1241,81.5,69,100,9.69,KI,1730072995
64,blackmans bay,-43.0167,147.3167,53.73,59,20,4.0,AU,1730072996
65,aasiaat,68.7098,-52.8699,3.92,83,15,9.1,GL,1730072999
66,hasaki,35.7333,140.8333,66.47,89,100,14.34,JP,1730073001
67,st. john's,47.5649,-52.7093,42.15,84,20,13.8,CA,1730072811
68,invercargill,-46.4,168.35,52.02,74,95,7.0,NZ,1730073003
69,besisahar,28.2313,84.3761,63.32,68,12,4.9,NP,1730073005
70,nabire,-3.3667,135.4833,82.54,79,45,3.8,ID,1730073007
71,salekhard,66.53,66.6019,21.2,91,27,6.71,RU,1730073008
72,stanley,54.868,-1.6985,50.29,93,40,6.91,GB,1730073010
73,gheraesti,47.0167,26.8167,52.61,64,30,3.42,RO,1730073012
74,patacamaya,-17.2333,-67.9167,50.11,76,47,13.02,BO,1730073013
75,mendeleyevskiy,54.1528,37.5822,43.97,83,98,2.62,RU,1730073016
76,tiksi,71.6872,128.8694,5.49,94,100,4.88,RU,1730073017
77,college,64.8569,-147.8028,15.08,76,100,5.75,US,1730072807
78,hawaiian paradise park,19.5933,-154.9731,80.89,72,100,6.91,US,1730073020
79,port lincoln,-34.7333,135.8667,61.7,62,81,10.63,AU,1730073021
80,dunedin,-45.8742,170.5036,50.45,69,95,14.54,NZ,1730073022
81,grand baie,-20.0182,57.5802,74.44,93,74,7.87,MU,1730073024
82,sinjai,-5.1241,120.253,85.03,64,7,5.86,ID,1730073025
83,masterton,-40.9597,175.6575,50.14,96,53,6.8,NZ,1730073026
84,ilula,-7.6766,36.0366,63.57,90,23,1.7,TZ,1730073027
85,new norfolk,-42.7826,147.0587,55.92,44,45,11.5,AU,1730073028
86,tsiombe,-25.3,45.4833,74.41,90,80,8.61,MG,1730073029
87,shushtar,32.0455,48.8567,64.36,18,0,1.68,IR,1730073031
88,lompoc,34.6391,-120.4579,64.81,81,0,18.99,US,1730073032
89,kodiak,57.79,-152.4072,44.11,57,0,3.44,US,1730072912
90,natal,-5.795,-35.2094,79.02,83,40,9.22,BR,1730073034
91,matoury,4.8483,-52.3317,80.56,78,0,3.44,GF,1730073035
92,ushuaia,-54.8,-68.3,44.26,70,75,1.14,AR,1730072871
93,myeik,12.4333,98.6,80.31,85,100,6.08,MM,1730073018
94,gouyave,12.1646,-61.7296,83.17,79,20,6.91,GD,1730073039
95,carnarvon,-24.8667,113.6333,79.23,33,0,16.55,AU,1730073040
96,illizi,26.4833,8.4667,81.03,19,39,9.24,DZ,1730073041
97,port mathurin,-19.6833,63.4167,74.93,76,4,13.82,MU,1730073042
98,tahlequah,35.9154,-94.97,73.62,53,0,6.91,US,1730073044
99,faya-largeau,17.9257,19.1043,73.27,18,4,17.2,TD,1730073046
100,iglino,54.8324,56.4126,32.86,89,93,5.06,RU,1730073047
101,mar del plata,-38.0023,-57.5575,69.82,49,0,5.75,AR,1730072817
102,banamba,13.55,-7.45,81.55,43,53,6.35,ML,1730073049
103,alto araguaia,-17.3147,-53.2153,73.22,81,67,0.96,BR,1730073051
104,timbuktu,16.7735,-3.0074,88.97,17,31,8.81,ML,1730073052
105,east porterville,36.0574,-118.9757,73.22,35,0,5.75,US,1730073053
106,kannur,11.8675,75.3576,74.91,91,52,4.61,IN,1730073054
107,abepura,-2.6333,140.5833,79.61,78,20,6.91,ID,1730073055
108,santa elena de uairen,4.6167,-61.1333,72.27,73,100,2.64,VE,1730073056
109,lucapa,-8.4192,20.7447,67.24,92,63,1.07,AO,1730073058
110,reyes,-14.3167,-67.3833,73.18,71,100,2.48,BO,1730073060
111,gitarama,-2.0744,29.7567,57.11,92,62,3.15,RW,1730073061
112,quelimane,-17.8786,36.8883,78.75,88,0,13.0,MZ,1730073062
113,talnakh,69.4865,88.3972,10.49,95,100,11.41,RU,1730073063
114,ilulissat,69.2167,-51.1,10.42,48,3,4.61,GL,1730073064
115,adh dhibiyah,24.5014,45.9686,66.07,61,25,8.59,SA,1730073066
116,altay,47.8667,88.1167,38.35,63,99,6.73,CN,1730073067
117,acapulco de juarez,16.8634,-99.8901,87.62,70,0,9.22,MX,1730072797
118,kaa-khem,51.6833,94.7333,36.75,83,99,4.09,RU,1730073069
119,nar'yan-mar,67.6713,53.087,31.32,91,81,9.66,RU,1730073070
120,turpan,42.9333,89.1667,57.56,38,54,3.15,CN,1730073071
121,avarua,-21.2078,-159.775,77.05,61,75,12.66,CK,1730073073
122,qamdo,31.1667,97.2333,31.44,52,0,3.8,CN,1730073074
123,homer,59.6425,-151.5483,42.69,62,0,0.0,US,1730073075
124,uckange,49.303,6.1492,54.72,100,1,1.88,FR,1730073076
125,latehar,23.75,84.5,71.51,90,18,1.61,IN,1730073077
126,ochakiv,46.6128,31.5498,58.55,83,19,14.23,UA,1730073079
127,gumla,23.05,84.55,69.91,93,69,2.93,IN,1730073080
128,grootfontein,-19.5667,18.1167,63.77,13,0,7.27,NA,1730073082
129,aioun,16.6614,-9.6149,87.55,19,98,8.97,MR,1730073083
130,albany,42.6001,-73.9662,47.44,63,58,5.21,US,1730073084
131,west island,-12.1568,96.8225,78.78,89,100,9.22,CC,1730073085
132,yaren,-0.5472,166.916,82.74,76,63,12.66,NR,1730073087
133,pocos de caldas,-21.7878,-46.5614,66.24,95,82,3.02,BR,1730073088
134,whitehorse,60.7161,-135.0538,25.02,73,75,6.91,CA,1730072835
135,harper,4.375,-7.7169,77.23,89,97,8.23,LR,1730073091
136,vorgashor,67.5833,63.95,28.06,92,74,5.44,RU,1730073092
137,mizdah,31.4451,12.9801,64.98,53,44,11.7,LY,1730073093
138,al jubayl,27.0112,49.6583,79.18,44,0,16.71,SA,1730073094
139,ayaviri,-14.8864,-70.5889,51.49,63,76,4.25,PE,1730073095
140,palikir - national government center,6.9248,158.1611,90.34,70,20,5.75,FM,1730073097
141,rabigh,22.7986,39.0349,82.11,71,0,5.35,SA,1730073098
142,geraldton,-28.7667,114.6,77.41,22,0,19.57,AU,1730073099
143,lieksa,63.3167,30.0167,45.1,93,100,19.17,FI,1730073100
144,luderitz,-26.6481,15.1594,56.64,66,54,12.19,NA,1730073102
145,puerto cabezas,14.0351,-83.3888,80.56,94,40,4.61,NI,1730073103
146,orange walk,17.8333,-88.8333,73.4,97,100,2.68,BZ,1730073104
147,lutjenburg,54.2919,10.5895,45.88,87,70,7.45,DE,1730073105
148,minas de marcona,-15.2119,-75.1103,57.51,76,4,11.14,PE,1730073106
149,phan rang-thap cham,11.5667,108.9833,77.09,87,100,5.46,VN,1730073108
150,vilyuchinsk,52.9306,158.4028,37.67,67,47,4.9,RU,1730073109
151,chonchi,-42.6128,-73.8092,45.34,91,24,1.1,CL,1730073110
152,petropavlovsk-kamchatsky,53.0452,158.6483,36.19,56,75,4.47,RU,1730073111
153,san patricio,28.017,-97.5169,82.35,50,0,10.0,US,1730073112
154,aykhal,66.0,111.5,-5.24,100,93,5.12,RU,1730073114
155,udachny,66.4167,112.4,-2.56,99,95,3.69,RU,1730073116
156,kem',64.9555,34.5793,40.03,93,59,14.58,RU,1730073117
157,auki,-8.7676,160.7034,87.71,61,62,2.15,SB,1730073118
158,sechura,-5.5569,-80.8222,66.97,77,46,16.55,PE,1730073119
159,bodaybo,57.8506,114.1933,29.43,98,100,1.7,RU,1730073120
160,baker city,44.7749,-117.8344,51.51,66,100,9.22,US,1730073089
161,dudinka,69.4058,86.1778,12.83,94,100,17.4,RU,1730073123
162,yuzhno-kurilsk,44.0306,145.8556,53.46,91,100,16.67,RU,1730073124
163,jiagedaqi,50.4167,124.1167,28.81,82,32,2.26,CN,1730073126
164,sandnessjoen,66.0217,12.6316,44.83,62,98,29.3,NO,1730073128
165,ribeira grande,38.5167,-28.7,62.78,83,38,3.0,PT,1730073129
166,margaret river,-33.95,115.0667,61.86,55,7,6.89,AU,1730073130
167,chandler,33.3062,-111.8412,95.05,14,75,9.22,US,1730073131
168,maslova pristan',50.4587,36.7408,45.75,85,93,4.9,RU,1730073132
169,kapuskasing,49.4169,-82.4331,30.29,55,40,3.44,CA,1730073134
170,viedma,-40.8135,-62.9967,61.03,52,93,9.53,AR,1730073085
171,tarko-sale,64.9225,77.785,25.52,96,100,9.48,RU,1730073136
172,tulsipur,28.131,82.2973,68.05,88,0,3.67,NP,1730073138
173,shingu,33.7333,135.9833,69.75,82,100,1.83,JP,1730073140
174,xichang,27.8964,102.2634,57.6,81,100,2.55,CN,1730073141
175,guerrero negro,27.9769,-114.0611,70.11,68,10,15.61,MX,1730073142
176,kirakira,-10.4544,161.9205,83.95,73,100,8.05,SB,1730073143
177,conde,-7.2597,-34.9075,78.26,83,40,5.75,BR,1730073144
178,nemuro,43.3236,145.575,55.53,83,99,16.31,JP,1730073145
179,pembroke,45.8168,-77.1162,37.18,49,100,4.29,CA,1730073147
180,tofol,5.3248,163.0078,87.58,70,75,6.91,FM,1730073148
181,kokopo,-4.352,152.2633,86.23,64,41,8.28,PG,1730073149
182,pak chong,14.708,101.4161,78.82,91,99,2.95,TH,1730073150
183,shilin,24.8188,103.3324,51.3,84,11,1.95,CN,1730073152
184,bahadurganj,26.2667,87.8167,73.58,87,0,4.18,IN,1730073154
185,guajara mirim,-10.7828,-65.3394,73.96,99,100,1.07,BR,1730073156
186,dakhla,23.6848,-15.958,66.69,87,3,16.26,EH,1730073157
187,tazacorte,28.629,-17.9293,68.97,85,75,17.27,ES,1730073158
188,sinabang,2.4803,96.3801,78.94,83,76,1.88,ID,1730073160
189,neryungri,56.6709,124.6491,17.4,95,95,2.33,RU,1730073161
190,tazovsky,67.4667,78.7,26.37,97,100,7.92,RU,1730073162
191,sovetskiy,61.3614,63.5842,30.72,88,100,4.63,RU,1730073164
192,arraial do cabo,-22.9661,-42.0278,72.19,72,99,11.41,BR,1730073165
193,sao tome,0.3365,6.7273,78.49,88,81,10.13,ST,1730073167
194,amuntai,-2.4177,115.2494,81.52,70,100,2.17,ID,1730073168
195,constantia,44.1833,28.65,47.08,86,6,11.1,RO,1730073169
196,itaituba,-4.2761,-55.9836,83.34,35,82,1.74,BR,1730073170
197,kuta,-8.7233,115.1723,82.35,83,20,2.3,ID,1730073171
198,verkhnevilyuysk,63.4453,120.3167,11.26,95,100,5.48,RU,1730073173
199,flin flon,54.7682,-101.865,35.44,60,75,9.22,CA,1730073174
200,dryden,49.7833,-92.7503,39.49,81,100,8.05,CA,1730073175
201,enewetak,11.3474,162.3373,83.1,77,65,7.92,MH,1730073176
202,luau,-10.7073,22.2247,65.59,83,56,3.31,AO,1730073177
203,rio grande,-32.035,-52.0986,61.25,72,27,9.55,BR,1730073178
204,floro,61.5996,5.0328,42.76,87,75,8.05,NO,1730073180
205,nogliki,51.8333,143.1667,34.83,54,13,5.91,RU,1730073181
206,nyuzen,36.9333,137.5,59.29,91,100,3.98,JP,1730073182
207,westport,41.1415,-73.3579,49.19,47,51,6.31,US,1730073183
208,klyuchi,52.2667,79.1667,42.01,70,99,9.95,RU,1730073184
209,zimmerman,45.4433,-93.59,57.63,50,0,3.44,US,1730073185
210,east london,-33.0153,27.9116,62.74,46,3,7.38,ZA,1730073188
211,fort madison,40.6298,-91.3151,59.61,38,0,5.75,US,1730073189
212,atafu village,-8.5421,-172.5159,82.02,73,100,13.44,TK,1730073190
213,ad darb,17.7229,42.2526,86.27,66,87,0.69,SA,1730073191
214,plyeshchanitsy,54.4222,27.8331,43.86,88,32,5.48,BY,1730073192
215,kenora,49.8167,-94.4337,45.57,61,100,12.66,CA,1730073194
216,port augusta,-32.5,137.7667,70.09,28,0,12.12,AU,1730073195
217,severnoye,56.3491,78.3619,38.21,87,100,2.71,RU,1730073196
218,carutapera,-1.195,-46.02,78.66,76,36,10.8,BR,1730073197
219,lyubim,58.3625,40.6843,33.73,95,10,3.89,RU,1730073198
220,broken hill,-31.95,141.4333,67.95,25,2,17.63,AU,1730073199
221,phalodi,27.1333,72.3667,82.38,27,8,8.46,IN,1730073201
222,papao,-17.75,-149.55,82.08,75,68,14.03,PF,1730073202
223,alice springs,-23.7,133.8833,83.75,21,0,17.27,AU,1730073203
224,sao vicente,-23.9631,-46.3919,65.95,26,100,3.0,BR,1730073143
225,hamilton,39.1834,-84.5333,53.04,58,0,1.01,US,1730073205
226,lusaka,-15.4067,28.2871,68.97,76,99,9.75,ZM,1730073207
227,villa gesell,-37.2639,-56.973,59.9,72,85,14.83,AR,1730073001
228,gorom-gorom,14.4439,-0.2361,85.06,18,11,9.19,BF,1730073209
229,klaksvik,62.2266,-6.589,41.58,69,96,7.36,FO,1730073210
230,coquimbo,-29.9533,-71.3436,56.93,77,40,9.22,CL,1730073211
231,gadzhiyevo,69.2551,33.3362,42.49,87,100,22.28,RU,1730073213
232,zheshart,62.0731,49.5733,35.91,76,97,1.74,RU,1730073214
233,kingston,17.997,-76.7936,85.15,79,40,11.5,JM,1730073215
234,port alfred,-33.5906,26.891,63.1,48,20,14.72,ZA,1730073216
235,dongning,44.0622,131.1207,39.06,64,5,4.99,CN,1730073217
236,laojunmiao,39.8333,97.7333,40.84,35,2,4.9,CN,1730073219
237,thompson,55.7435,-97.8558,28.56,74,100,9.22,CA,1730073220
238,hermanus,-34.4187,19.2345,60.8,88,98,19.24,ZA,1730073221
239,rzhaksa,52.1338,42.0264,44.33,81,100,4.63,RU,1730073222
240,carbonear,47.7332,-53.2148,42.35,78,14,16.89,CA,1730073223
241,krasnozerskoye,53.9828,79.2374,37.49,81,100,7.54,RU,1730073224
242,barakani,-12.1356,44.4317,78.15,82,3,7.96,KM,1730073226
243,saint-pierre,-21.3393,55.4781,73.08,78,0,1.14,RE,1730073227
244,holualoa,19.6228,-155.9522,80.44,81,40,12.66,US,1730073228
245,ribeira brava,32.65,-17.0667,68.72,81,25,0.89,PT,1730073229
246,nueva gerona,21.8833,-82.8,79.36,72,95,20.04,CU,1730073230
247,kavaratti,10.5669,72.642,81.68,73,96,4.34,IN,1730073232
248,rockport,28.0206,-97.0544,80.65,69,0,9.22,US,1730073233
249,polovinnoye,54.7914,65.9864,35.96,96,100,9.08,RU,1730073235
250,mejit,10.2753,170.8646,83.57,76,8,8.37,MH,1730073236
251,campos belos,-13.0367,-46.7717,76.05,72,68,4.0,BR,1730073237
252,laconia,43.5279,-71.4704,43.68,58,31,3.6,US,1730073090
253,ciudad madero,22.2667,-97.8333,80.06,71,16,9.55,MX,1730072946
254,ponta delgada,37.7333,-25.6667,66.92,68,75,5.75,PT,1730073241
255,pacocha,-17.5833,-71.3333,61.9,91,1,1.43,PE,1730073242
256,afif,23.9065,42.9172,74.95,40,36,3.49,SA,1730073243
257,semur-en-auxois,47.4833,4.3333,54.09,90,3,2.95,FR,1730073244
258,jijiga,9.35,42.8,64.58,57,84,5.01,ET,1730073246
259,margate,51.3813,1.3862,51.69,90,91,12.33,GB,1730072819
260,xuanzhou,30.9525,118.7553,60.73,76,100,2.42,CN,1730073248
261,tabas,33.5959,56.9244,57.42,58,0,2.3,IR,1730073249
262,olyokminsk,60.3736,120.4264,20.48,95,99,2.73,RU,1730073250
263,port saint john's,-31.6229,29.5448,62.92,85,22,7.09,ZA,1730073251
264,santiago de cao,-7.9589,-79.2392,64.53,82,70,9.22,PE,1730073253
265,tamiahua,21.2667,-97.45,74.86,84,25,7.94,MX,1730073152
266,payson,40.0444,-111.7321,65.25,38,100,4.0,US,1730073255
267,puerto deseado,-47.7503,-65.8938,57.13,37,75,13.02,AR,1730073256
268,yomju-up,39.8933,124.5981,45.01,66,0,8.43,KP,1730073257
269,tyazhinskiy,56.116,88.524,39.16,95,100,12.37,RU,1730073258
270,filipstad,59.7124,14.1683,41.36,82,1,10.13,SE,1730073260
271,metu,8.3,35.5833,58.64,97,93,2.42,ET,1730073261
272,uturoa,-16.7333,-151.4333,77.16,73,73,13.11,PF,1730073262
273,juneau,58.3019,-134.4197,44.6,91,75,0.0,US,1730072797
274,la passe,45.5549,-0.8967,55.04,86,1,3.42,FR,1730073264
275,behompy,-23.2496,43.8557,71.85,58,21,4.03,MG,1730073266
276,nyurba,63.2842,118.3319,16.03,96,100,4.5,RU,1730073267
277,hilo,19.7297,-155.09,81.1,77,100,6.91,US,1730073071
278,porto velho,-8.7619,-63.9039,77.05,88,20,1.14,BR,1730073220
279,dong ha,16.8163,107.1003,69.44,96,100,4.16,VN,1730073270
280,khandyga,62.6667,135.6,0.16,88,100,0.51,RU,1730073271
281,markovo,57.3206,107.0881,29.98,97,96,2.17,RU,1730073273
282,ola,59.5833,151.2833,16.79,52,61,12.37,RU,1730073274
283,fale old settlement,-9.3852,-171.2468,82.71,73,100,15.3,TK,1730073275
284,lebu,-37.6167,-73.65,51.53,85,1,19.73,CL,1730073276
285,irymple,-34.25,142.1667,64.09,59,0,12.86,AU,1730073277
286,puerto aysen,-45.4,-72.7,45.0,97,50,5.97,CL,1730073278
287,remire-montjoly,4.9167,-52.2667,80.64,78,0,3.44,GF,1730073280
288,wailua homesteads,22.0669,-159.378,83.19,77,40,17.27,US,1730073281
289,okhotsk,59.3833,143.3,17.33,66,100,13.2,RU,1730073282
290,elliot lake,46.3834,-82.6331,34.81,95,100,6.29,CA,1730073283
291,cidreira,-30.1811,-50.2056,65.86,63,0,15.39,BR,1730073212
292,musoma,-1.5,33.8,71.11,74,96,2.82,TZ,1730073285
293,nola,40.922,14.5329,63.01,95,63,1.95,IT,1730073287
294,villa zaragoza,22.0333,-100.7333,61.65,61,0,10.13,MX,1730073288
295,aripuana,-9.1667,-60.6333,73.9,98,100,2.89,BR,1730073289
296,queenstown,-31.8976,26.8753,48.7,57,2,23.31,ZA,1730073138
297,alaghsas,17.0187,8.0168,78.19,18,5,11.18,NE,1730073292
298,tamanrasset,22.785,5.5228,69.71,21,0,10.36,DZ,1730073293
299,waingapu,-9.6567,120.2641,83.37,73,8,5.14,ID,1730073294
300,iskateley,67.6803,53.1512,31.62,91,98,10.16,RU,1730073295
301,oregon,44.0001,-120.5014,43.39,48,80,18.1,US,1730073297
302,broome,42.2506,-75.833,43.65,56,68,2.33,US,1730073298
303,las palmas,28.4204,-14.0131,65.19,73,0,16.11,ES,1730073299
304,andratx,39.5755,2.4202,67.44,92,100,12.57,ES,1730073300
305,jaipur,26.9167,75.8167,70.92,68,0,1.14,IN,1730073301
306,quibala,-10.7337,14.98,64.42,96,100,1.95,AO,1730073303
307,utrik,11.2278,169.8474,82.99,78,98,8.08,MH,1730073304
308,strezhevoy,60.7333,77.5889,33.62,93,100,2.68,RU,1730073305
309,ath thawrah,35.8469,38.5443,61.09,34,0,5.95,SY,1730073306
310,namibe,-15.1961,12.1522,65.26,84,31,4.52,AO,1730073307
311,la villa del rosario,10.3258,-72.3134,78.26,87,67,10.22,VE,1730073309
312,akureyri,65.6835,-18.0878,22.93,86,0,8.05,IS,1730073310
313,ta`u,-14.2336,-169.5144,80.46,83,41,16.98,AS,1730073311
314,troitsko-pechorsk,62.7084,56.1964,30.9,92,96,4.54,RU,1730073312
315,swakopmund,-22.6833,14.5333,56.98,77,73,1.01,NA,1730073313
316,lorengau,-2.0226,147.2712,84.45,79,18,11.48,PG,1730073316
317,afzalpur,17.2,76.35,71.31,67,28,1.59,IN,1730073317
318,beihai,21.4833,109.1,68.27,71,100,24.85,CN,1730073318
319,marsa alam,25.0757,34.8918,74.39,47,0,9.15,EG,1730073319
320,idanre,7.1127,5.1159,73.9,87,52,0.89,NG,1730073320
321,brady,31.1352,-99.3351,86.45,28,0,6.91,US,1730073106
322,bubaque,11.2833,-15.8333,82.18,78,74,10.78,GW,1730073324
323,ghadamis,30.1337,9.5007,74.35,30,82,5.14,LY,1730073327
324,saint george's,12.0564,-61.7485,83.88,79,20,6.91,GD,1730073328
325,andalgala,-27.5819,-66.3165,72.79,41,0,6.64,AR,1730073330
326,dedovichi,57.5517,29.9502,45.39,92,100,7.29,RU,1730073331
327,lubang,13.8584,120.124,83.12,77,54,12.24,PH,1730073332
328,coahuayana de hidalgo,18.7,-103.6583,81.81,79,0,2.62,MX,1730073333
329,buala,-8.145,159.5921,84.54,75,94,10.31,SB,1730073334
330,roxas,11.5853,122.7511,82.2,76,94,11.74,PH,1730073335
331,yerofey pavlovich,53.9667,121.9667,23.41,75,57,1.21,RU,1730073337
332,folkston,30.8305,-82.0098,73.02,78,44,1.01,US,1730073339
333,tommot,58.9564,126.2925,15.12,94,98,1.23,RU,1730073340
334,vila franca do campo,37.7167,-25.4333,66.61,99,85,6.38,PT,1730073341
335,sogne,58.0833,7.8167,48.69,87,33,14.2,NO,1730073342
336,zakynthos,37.7914,20.8953,66.96,63,0,4.36,GR,1730073345
337,susuman,62.7833,148.1667,2.44,92,100,2.33,RU,1730073346
338,al jahra',29.3375,47.6581,68.38,17,0,12.24,KW,1730073348
339,mount isa,-20.7333,139.5,91.17,18,20,11.5,AU,1730073349
340,vylkove,45.4021,29.586,52.48,89,7,9.44,UA,1730073350
341,kapa'a,22.0752,-159.319,84.52,76,40,17.27,US,1730073352
342,itoigawa,37.0333,137.85,59.45,96,100,4.85,JP,1730073353
343,shevchenko,48.5,35.0,48.13,79,79,7.43,UA,1730073354
344,howrah,22.5892,88.3103,80.6,89,40,0.0,IN,1730073355
345,vorkuta,67.5,64.0,27.99,93,72,4.76,RU,1730073357
346,pariaman,-0.619,100.12,77.05,76,40,3.27,ID,1730073358
347,argo,37.6333,22.7333,59.16,48,0,3.89,GR,1730073359
348,kas,36.2018,29.6377,67.87,49,94,4.61,TR,1730073360
349,revda,56.801,59.9303,29.3,89,98,3.69,RU,1730073361
350,vadso,70.0744,29.7487,42.96,87,75,18.41,NO,1730073363
351,salalah,17.0151,54.0924,78.89,78,0,2.3,OM,1730073111
352,afaahiti,-17.75,-149.2833,73.85,76,84,13.24,PF,1730073365
353,surgut,61.25,73.4167,32.18,100,40,0.0,RU,1730073199
354,qinhuangdao,39.9317,119.5883,50.27,51,0,1.9,CN,1730073367
355,ko pha ngan,9.7578,100.0291,77.68,78,100,18.79,TH,1730073368
356,mahanoro,-19.9,48.8,74.5,91,92,5.39,MG,1730073369
357,masallatah,32.6167,14.0,66.38,71,50,15.21,LY,1730073371
358,bel ombre,-4.6167,55.4167,78.64,78,20,1.14,SC,1730073372
359,byron bay,-28.65,153.6167,68.2,75,100,10.65,AU,1730073373
360,cambria,35.5641,-121.0808,61.05,86,100,3.0,US,1730073374
361,nuuk,64.1835,-51.7216,29.01,80,100,4.61,GL,1730073375
362,uray,60.1247,64.7758,32.52,87,100,4.27,RU,1730073376
363,la tuque,47.4334,-72.7824,30.45,47,54,5.75,CA,1730073378
364,mersing,2.4312,103.8405,76.91,88,20,5.75,MY,1730073380
365,mareeba,-17.0,145.4333,84.24,74,79,9.31,AU,1730073381
366,newman,37.3138,-121.0208,76.05,56,100,1.99,US,1730073076
367,darwin,-12.4611,130.8418,89.94,66,40,5.75,AU,1730073384
368,meizhou,24.2977,116.1072,71.28,77,86,4.76,CN,1730073385
369,luganville,-15.5333,167.1667,80.24,83,100,9.95,VU,1730073386
370,alotau,-10.3069,150.4462,84.38,73,90,5.64,PG,1730073387
371,mugia,43.1041,-9.2179,56.91,82,26,16.51,ES,1730073388
372,nizhneangarsk,55.7833,109.55,27.52,81,77,5.82,RU,1730073390
373,stephenville,32.2207,-98.2023,84.33,42,0,0.0,US,1730073391
374,dadukou,26.5479,101.7054,63.63,84,98,1.97,CN,1730073392
375,barrouallie,13.2333,-61.2667,80.22,83,40,6.91,VC,1730073393
376,grunberg,50.594,8.9587,54.1,90,94,4.0,DE,1730073394
377,castillos,-34.1667,-53.8333,53.46,79,32,5.82,UY,1730073395
378,polyarnyy,69.1989,33.4478,42.42,86,100,22.95,RU,1730073397
379,amarante do maranhao,-5.5667,-46.7422,85.28,32,28,3.44,BR,1730073398
380,nadi,-17.8,177.4167,84.2,65,40,11.5,FJ,1730073399
381,gunnedah,-30.9833,150.25,77.16,26,0,6.85,AU,1730073400
382,gopalganj,26.4667,84.4333,75.02,82,0,4.52,IN,1730073401
383,chernomorskoye,45.5039,32.6997,58.6,71,17,12.5,UA,1730073402
384,iquitos,-3.7481,-73.2472,78.84,89,100,4.61,PE,1730073404
385,nueva concepcion,14.2,-91.3,79.83,84,36,5.12,GT,1730073405
386,brookings,44.3114,-96.7984,58.17,52,68,8.37,US,1730073406
387,kharan,28.5833,65.4167,71.33,25,4,11.68,PK,1730073407
388,yulinshi,38.2906,109.7494,50.09,59,1,5.19,CN,1730073408
389,belomorsk,64.5232,34.7668,40.08,92,31,12.82,RU,1730073409
390,el calafate,-50.3408,-72.2768,41.56,90,60,14.16,AR,1730073266
391,saldanha,-33.0117,17.9442,60.85,93,75,17.31,ZA,1730073412
392,bykhaw,53.5193,30.2469,42.64,76,2,4.09,BY,1730073413
393,oamaru,-45.0784,170.9801,52.57,76,15,9.48,NZ,1730073415
394,mount pearl,47.5166,-52.7813,42.15,87,20,13.8,CA,1730073416
395,dwarka,22.2394,68.9678,82.76,73,75,9.93,IN,1730073417
396,goz beida,13.95,20.55,79.56,19,83,7.65,TD,1730073418
397,sao jose de ribamar,-2.5619,-44.0542,80.98,80,16,14.67,BR,1730073413
398,motca,47.25,26.6167,52.61,65,4,4.05,RO,1730073421
399,meadow lake,34.8014,-106.5436,73.69,37,75,5.37,US,1730073422
400,rawson,-43.3002,-65.1023,61.09,25,0,10.36,AR,1730073423
401,tomakomai,42.6369,141.6033,53.74,76,75,17.27,JP,1730073424
402,storozhevaya,43.8789,41.4514,35.06,68,1,4.99,RU,1730073426
403,curuca,-0.7289,-47.8481,77.97,74,49,5.97,BR,1730073427
404,codrington,-38.2667,141.9667,57.81,58,68,11.18,AU,1730073428
405,la ronge,55.1001,-105.2842,41.25,65,75,18.41,CA,1730073432
406,colonia,50.9333,6.95,59.13,92,100,2.3,DE,1730073435
407,taoudenni,22.6783,-3.9836,78.71,26,0,9.08,ML,1730073436
408,usogorsk,63.4106,48.6872,32.38,91,15,3.56,RU,1730073438
409,mount gambier,-37.8333,140.7667,59.49,50,80,7.0,AU,1730073440
410,puerto maldonado,-12.6,-69.1833,77.4,73,0,2.3,PE,1730073441
411,ploneour-lanvern,47.9,-4.2833,50.32,100,100,4.61,FR,1730073442
412,devrek,41.2192,31.9558,47.73,69,0,4.41,TR,1730073443
413,luwuk,-0.9516,122.7875,82.33,56,20,5.41,ID,1730073444
414,san luis de la loma,17.2706,-100.8939,81.5,85,0,1.68,MX,1730073446
415,chernolesskoye,44.7156,43.7133,41.09,57,26,1.95,RU,1730073447
416,pak phanang,8.3511,100.202,78.39,86,100,5.08,TH,1730073448
417,ceerigaabo,10.6162,47.368,64.85,63,60,2.82,SO,1730073449
418,tolanaro,-25.0319,46.9987,75.27,94,20,18.41,MG,1730073450
419,weno,7.4515,151.8468,85.95,79,75,3.44,FM,1730073451
420,saguenay,48.4168,-71.0657,33.08,63,75,20.71,CA,1730073365
421,ain taya,36.7933,3.2869,60.64,94,75,10.36,DZ,1730073454
422,charef,34.621,2.795,56.34,77,100,8.9,DZ,1730073455
423,keflavik,64.0049,-22.5624,36.03,69,75,4.61,IS,1730073456
424,rancagua,-34.1708,-70.7444,75.06,38,0,4.12,CL,1730073457
425,alva,56.1528,-3.8051,46.45,98,100,5.1,GB,1730073459
426,bonthe,7.5264,-12.505,78.33,89,62,4.43,SL,1730073460
427,stiens,53.2623,5.7577,51.98,80,100,5.75,NL,1730073461
428,ad dilam,23.9915,47.1627,70.7,45,0,4.54,SA,1730073462
429,prado del rey,36.7987,-5.5507,52.95,67,95,3.4,ES,1730073463
430,emerald,-23.5333,148.1667,73.35,68,100,16.4,AU,1730073464
431,meadow lakes,61.6247,-149.6011,35.42,67,0,1.01,US,1730073466
432,princeville,45.7668,-61.2985,39.85,76,100,13.8,CA,1730073467
433,west end,26.6833,-78.9667,76.26,63,100,17.72,BS,1730073468
434,palmas,-10.2128,-48.3603,85.87,70,40,5.75,BR,1730073227
435,plattsburgh,44.6995,-73.4529,41.22,82,100,9.22,US,1730073471
436,lazaro cardenas,17.9583,-102.2,82.76,80,0,8.43,MX,1730073424
437,vrangel',42.7297,133.0839,41.92,62,2,12.77,RU,1730073334
438,general pico,-35.6566,-63.7568,67.15,52,0,11.61,AR,1730073475
439,jinchang,38.4953,102.1739,48.51,27,75,5.23,CN,1730073476
440,mutoko,-17.397,32.2268,68.67,52,35,2.48,ZW,1730073478
441,riacho de santana,-13.6092,-42.9389,80.91,36,97,5.41,BR,1730073479
442,ylitornio,66.3089,23.6773,45.3,98,100,8.05,FI,1730073480
443,cole harbour,44.6724,-63.4751,41.94,57,16,8.05,CA,1730073481
444,mukdahan,16.5833,104.5,70.79,88,100,4.92,TH,1730073483
445,sitka,57.0531,-135.33,48.09,71,20,4.61,US,1730073485
446,aliveri,38.4167,24.0333,59.41,58,85,5.39,GR,1730073486
447,cobija,-11.0267,-68.7692,74.48,91,92,3.53,BO,1730073487
448,hailey,43.5196,-114.3153,62.46,22,0,14.0,US,1730073488
449,kone,-21.0595,164.8658,84.09,48,39,3.96,NC,1730073489
450,susanville,40.4163,-120.653,59.83,51,19,5.99,US,1730073491
451,rudarpur,26.4394,83.6144,76.69,81,46,4.72,IN,1730073492
452,cooper's town,26.8667,-77.5167,74.68,76,95,14.54,BS,1730073493
453,ust'-ilimsk,58.0006,102.6619,28.65,99,100,3.06,RU,1730073494
454,alvorada,-12.48,-49.1247,79.66,73,100,4.68,BR,1730073239
455,grimes,41.6883,-93.7911,62.02,49,0,5.75,US,1730073499
456,changling,44.2653,124.0005,38.55,72,0,7.36,CN,1730073500
457,nicoya,10.1483,-85.452,75.87,88,81,5.14,CR,1730073314
458,beloyarskiy,63.7119,66.6722,27.19,93,75,4.25,RU,1730073502
459,vytegra,61.0064,36.4481,37.85,90,7,9.35,RU,1730073504
460,meulaboh,4.1363,96.1285,75.92,90,100,3.83,ID,1730073506
461,kyshtovka,56.555,76.6271,34.47,91,60,2.39,RU,1730073507
462,medicine hat,50.0501,-110.6683,65.39,33,60,5.99,CA,1730073510
463,flying fish cove,-10.4217,105.6791,78.48,83,75,5.75,CX,1730073511
464,zahedan,29.4963,60.8629,55.31,50,0,11.5,IR,1730073513
465,peterhead,57.5058,-1.7981,49.87,92,100,17.13,GB,1730073515
466,trairi,-3.2778,-39.2689,77.94,82,5,10.74,BR,1730073460
467,muroto-misakicho,33.2833,134.15,71.44,82,100,16.78,JP,1730073517
468,richards bay,-28.783,32.0377,70.7,93,77,11.92,ZA,1730073520
469,bandar,2.05,99.75,73.02,87,96,2.46,ID,1730073521
470,korsun-shevchenkivskyi,49.4189,31.2587,51.04,61,65,6.55,UA,1730073522
471,tongouson,5.0214,120.1328,82.31,77,74,1.7,PH,1730073524
472,eyl,7.9803,49.8164,78.98,83,75,5.75,SO,1730073526
473,forster,-32.1667,152.5167,76.17,41,0,4.52,AU,1730073527
474,uacu cungo,-11.3634,15.1208,62.22,97,100,2.57,AO,1730073528
475,tralee,52.2704,-9.7026,56.82,98,100,7.52,IE,1730073529
476,abbeville,50.1,1.8333,52.48,88,76,4.65,FR,1730073530
477,chui,-33.6971,-53.4616,55.98,83,24,5.99,UY,1730073533
478,huaicheng,23.9051,112.1931,66.22,66,23,2.91,CN,1730073534
479,brisas de zicatela,15.8369,-97.0419,81.79,74,11,1.43,MX,1730073535
480,mabama,-5.1333,32.5333,66.81,84,80,2.71,TZ,1730073536
481,huicungo,-7.2833,-76.8,78.17,82,98,2.89,PE,1730073537
482,cannonvale,-20.2833,148.7,78.19,64,69,11.54,AU,1730073539
483,grambling,32.5276,-92.714,76.44,52,60,4.5,US,1730073541
484,agat village,13.3886,144.6585,81.54,92,40,5.75,GU,1730073542
485,kirensk,57.7853,108.1119,27.82,99,99,2.89,RU,1730073543
486,erndtebruck,50.9833,8.2667,52.75,99,100,3.0,DE,1730073544
487,chenzhou,25.8,113.0333,58.39,96,100,2.71,CN,1730073547
488,huarmey,-10.0681,-78.1522,64.94,82,12,9.1,PE,1730073549
489,juan griego,11.0817,-63.9655,84.33,79,90,14.97,VE,1730073550
490,sosnovo-ozerskoye,52.5249,111.5418,24.67,91,83,5.37,RU,1730073551
491,burang,30.25,81.1667,37.6,70,0,4.18,CN,1730073553
492,chegdomyn,51.1167,133.0167,27.64,66,98,0.54,RU,1730073554
493,kuanda,56.3161,116.0806,20.77,96,99,1.34,RU,1730073555
494,conception bay south,47.4999,-52.9981,41.92,88,8,14.7,CA,1730073557
495,walvis bay,-22.9575,14.5053,54.55,66,65,3.44,NA,1730073559
496,egilsstadir,65.2653,-14.3948,28.31,74,75,3.44,IS,1730073560
497,pimentel,-6.8367,-79.9342,66.49,77,20,19.57,PE,1730073561
498,san antonio de pale,-1.4014,5.6325,77.95,84,96,16.31,GQ,1730073563
499,luohe,33.5717,114.0353,57.88,52,6,3.27,CN,1730073564
500,daru,-9.0763,143.2092,80.94,84,100,4.21,PG,1730073565
501,pyu,18.4833,96.4333,74.23,97,100,4.23,MM,1730073567
502,chusovoy,58.3013,57.8131,29.79,90,89,4.16,RU,1730073568
503,savelugu,9.6244,-0.8253,81.34,57,49,2.82,GH,1730073569
504,ketchikan,55.3422,-131.6461,48.18,87,75,6.91,US,1730073570
505,labrador city,52.9463,-66.9114,27.18,77,100,69.99,CA,1730073572
506,male,4.1748,73.5089,84.15,74,20,17.27,MV,1730073573
507,malagon,39.2139,-4.0005,43.74,83,94,8.63,ES,1730073575
508,kampli,15.4,76.6167,71.53,64,45,2.62,IN,1730073576
509,amqui,48.4638,-67.4313,31.1,65,100,10.31,CA,1730073577
510,jiaojiang,28.6803,121.4428,60.84,94,99,6.11,CN,1730073578
511,stettler,52.3168,-112.7186,44.22,60,79,24.09,CA,1730073580
512,claveria,18.6074,121.0832,81.3,77,100,7.4,PH,1730073582
513,mudurnu,40.473,31.2076,46.31,51,1,0.83,TR,1730073583
514,port blair,11.6667,92.75,77.04,100,40,0.0,IN,1730073585
515,kuala belait,4.5833,114.1833,79.48,87,41,4.79,BN,1730073586
516,kailua-kona,19.6406,-155.9956,82.56,90,88,3.0,US,1730073587
517,vila velha,-20.3297,-40.2925,71.55,86,100,20.0,BR,1730073588
518,adi keyh,14.8444,39.3772,58.41,81,14,5.26,ER,1730073589
519,prince rupert,54.3161,-130.3201,49.69,82,100,9.22,CA,1730073590
520,ulladulla,-35.35,150.4667,65.12,64,95,10.4,AU,1730073472
521,bang len,14.0219,100.1718,77.5,94,100,3.56,TH,1730073593
522,mhamid,29.82,-5.72,69.78,32,48,5.84,MA,1730073594
523,trenggalek,-8.05,111.7167,80.06,76,64,4.16,ID,1730073595
524,lubao,14.9167,120.55,78.51,83,42,1.34,PH,1730073597
525,pokhara,28.2333,83.9833,65.19,63,35,3.4,NP,1730073598
526,moroto,2.5345,34.6666,72.09,66,98,6.58,UG,1730073599
527,guadalupe y calvo,26.1,-106.9667,61.09,41,0,2.84,MX,1730073600
528,arawa,-6.2132,155.5367,81.81,84,100,3.67,PG,1730073601
529,canutama,-6.5339,-64.3831,76.26,87,100,2.19,BR,1730073603
530,sao joao do piaui,-8.3581,-42.2467,85.21,24,6,4.43,BR,1730073606
531,taulaga,-11.0553,-171.0883,79.93,81,100,10.71,AS,1730073607
532,sosnovka,56.255,51.2842,36.72,88,100,0.87,RU,1730073608
533,mili,6.0815,171.735,83.88,72,64,6.31,MH,1730073609
534,port lavaca,28.615,-96.6261,78.06,64,0,9.75,US,1730073419
535,seminole,28.7086,-81.2081,75.56,77,0,5.75,US,1730073322
536,wewak,-3.5534,143.6268,84.56,66,50,4.79,PG,1730073614
537,guasdualito,7.2424,-70.7324,84.16,79,20,0.0,VE,1730073617
538,san miguel,13.4833,-88.1833,78.62,86,95,1.25,SV,1730073618
539,kismayo,-0.3582,42.5454,78.03,76,100,11.32,SO,1730073619
540,hillsborough,37.5741,-122.3794,67.41,83,75,16.11,US,1730073620
541,voi,-3.3945,38.563,72.12,87,99,4.34,KE,1730073621
542,tosontsengel,48.7567,98.2839,26.11,95,75,3.53,MN,1730073622
543,tual,-5.6667,132.75,80.01,82,100,14.61,ID,1730073624
544,canton,23.1167,113.25,70.97,63,72,12.21,CN,1730073399
545,dungarvan,52.0881,-7.6253,57.09,100,100,8.99,IE,1730073627
546,baruun-urt,46.6806,113.2792,36.54,75,100,4.12,MN,1730073628
547,koster,-25.863,26.8976,52.34,39,71,18.52,ZA,1730073632
548,pisco,-13.7,-76.2167,66.25,77,0,20.71,PE,1730073633
549,khovd,48.0056,91.6419,35.87,62,72,3.83,MN,1730073635
550,novyy turtkul',41.55,61.0167,46.58,51,19,5.35,UZ,1730073636
551,san pedro pochutla,15.7333,-96.4667,75.52,89,22,4.18,MX,1730073638
552,kuqa,41.7278,82.9364,50.99,36,91,0.72,CN,1730073639
553,callao,-12.0667,-77.15,68.72,77,20,14.97,PE,1730073640
554,masuguru,-11.3667,38.4167,75.79,78,2,5.46,TZ,1730073641
555,darab,28.7519,54.5444,68.11,50,0,0.18,IR,1730073642
556,vila do maio,15.1333,-23.2167,77.95,76,96,16.31,CV,1730073644
557,kununurra,-15.7667,128.7333,87.78,62,22,3.44,AU,1730073646
558,wenchang,30.904,118.4887,60.24,79,100,2.46,CN,1730073648
559,caetes,-8.7731,-36.6225,66.2,90,1,14.18,BR,1730073649
560,balqash,46.8481,74.995,46.63,74,100,18.54,KZ,1730073650
561,ostersund,63.1792,14.6357,42.62,70,40,14.97,SE,1730073651
562,zinjibar,13.1287,45.3807,82.89,71,51,6.49,YE,1730073652
563,crane,31.3974,-102.3501,81.68,22,0,17.81,US,1730073653
564,la porte,29.6658,-95.0194,79.03,74,0,8.66,US,1730073484
565,son la,21.3167,103.9,62.49,84,99,2.26,VN,1730073656
566,nelson,-41.2833,173.2833,51.66,91,85,1.59,NZ,1730073423
567,porto-vecchio,41.591,9.2795,64.06,94,75,9.22,FR,1730073658
568,parham,17.0968,-61.7705,82.09,77,20,6.91,AG,1730073659
569,cabo san lucas,22.8909,-109.9124,88.75,53,2,8.99,MX,1730073380
570,seydi,39.4816,62.9137,49.35,53,41,6.08,TM,1730073661
571,jieshi,22.8134,115.8257,73.26,78,77,9.93,CN,1730073663
572,hotan,37.0997,79.9269,50.54,27,21,6.42,CN,1730073664
573,sheldon,43.1811,-95.8561,60.78,33,0,11.5,US,1730073665
574,chipinge,-20.1883,32.6236,70.88,60,75,5.06,ZW,1730073666
575,priargunsk,50.3691,119.1012,29.44,82,45,0.47,RU,1730073668
576,chibougamau,49.9168,-74.3659,28.02,64,100,13.8,CA,1730073669
577,san sebastian de la gomera,28.0916,-17.1133,70.16,68,0,8.05,ES,1730073670
578,tyuratam,45.6507,63.3156,41.11,70,24,13.49,KZ,1730073671
579,bogo,11.0517,124.0055,83.01,76,97,11.88,PH,1730073672
580,puerto baquerizo moreno,-0.9,-89.6,68.74,78,86,10.09,EC,1730073401
581,mckinleyville,40.9465,-124.1006,60.84,83,0,3.44,US,1730073675
